{
  "features": [
    {
      "properties": {
        "name": "Philadelphia, PA",
        "status":"decided_to_keep",
        "summary": "Philadelphia, PA changes name of school police officers, now calling them \"safety officers.\"",
        "url": "https://www.inquirer.com/education/kevin-bethel-diversion-school-safety-philadelphia-school-district-police-20191202.html"
      },
      "geometry": {
        "coordinates": [
          -75.1652,
          39.9526
        ],
        "type": "Point"
      }
    },
    {
      "properties": {
        "name": "Portland, OR",
        "status":"removed",
        "summary": "Portland, OR removes police officers from schools",
        "url": "https://www.pewtrusts.org/en/research-and-analysis/blogs/stateline/2020/06/10/after-george-floyd-some-school-districts-cut-ties-with-police"
      },
      "geometry": {
        "coordinates": [
          -122.6750, 45.5051
        ],
        "type": "Point"
      }
    },
    {
      "properties": {
        "name": "Minneapolis, MN",
        "status":"removed",
        "summary":"Minneapolis, MN removes police officers from schools",
        "url": "https://www.pewtrusts.org/en/research-and-analysis/blogs/stateline/2020/06/10/after-george-floyd-some-school-districts-cut-ties-with-police"
      },
      "geometry": {
        "coordinates": [
           -93.2650, 44.9778
        ],
        "type": "Point"
      }
    },
    {
      "properties": {
        "name": "Saint Paul, MN",
        "status":"removed",
        "summary":"St. Paul, MN removes police officers from schools",
        "url": "https://www.kare11.com/article/news/education/st-paul-schools-to-end-contract-with-sppd-vote-to-remove-school-resource-officers/89-af368ea9-b58f-41a2-a9b3-6f5aba20f659"
      },
      "geometry": {
        "coordinates": [
           -93.0900, 44.9537
        ],
        "type": "Point"
      }
    },
    {
      "properties": {
        "name": "Denver, CO",
        "status":"removed",
        "summary":"Denver, CO removes police officers from schools",
        "url": "https://www.fox21news.com/news/state/denver-school-board-votes-to-remove-sros-cut-ties-with-police-department/"
      },
      "geometry": {
        "coordinates": [
           -104.9903, 39.7392
        ],
        "type": "Point"
      }
    },
    {
      "properties": {
        "name": "Chicago, IL",
        "status":"considering",
        "summary":"Chicago, IL school board votes 4-3 to keep contract with police, but are going to reconsider decision at the end of this summer. \n <span>Update 7/13:</span> Chicago public school sets precedent by removing SROs on their own.",
        "url": "https://www.seattletimes.com/education-lab/police-presence-at-seattle-public-schools-halted-indefinitely/"
      },
      "geometry": {
        "coordinates": [
           -87.6298, 41.8781
        ],
        "type": "Point"
      }
    },
    {
      "properties": {
        "name": "Oakland, CA",
        "status":"removed",
        "summary":"Oakland, CA eliminates district police department, removing police from schools",
        "url": "https://www.sfchronicle.com/bayarea/article/District-police-eliminated-from-Oakland-schools-15364811.php"
      },
      "geometry": {
        "coordinates": [
           -122.2712, 37.8044
        ],
        "type": "Point"
      }
    },
    {
      "properties": {
        "name": "Madison, WI",
        "status":"removed",
        "summary":"Madison, WI removes police from schools",
        "url": "https://madison.com/ct/news/local/education/local_schools/updated-madison-school-board-votes-unanimously-to-end-police-in-schools-contract/article_ac077373-a518-554f-a7a6-1f2514d989a6.html"
      },
      "geometry": {
        "coordinates": [
           -89.4012, 43.0731
        ],
        "type": "Point"
      }
    },
    {
      "properties": {
        "name": "Toronto, Canada",
        "status":"removed",
        "summary":"Toronto, Canada removes police from schools",
        "url": "https://www.cbc.ca/news/canada/toronto/school-resource-officers-toronto-board-police-1.4415064"
      },
      "geometry": {
        "coordinates": [
           -79.3832, 43.6532
        ],
        "type": "Point"
      }
    },
    {
      "properties": {
        "name": "Seatle, WA",
        "status":"removed",
        "summary":"Seattle, WA removes police from schools for one year. \n <span>Update 7/13:</span> District permanently cut ties with police at three schools, considering fourth in August following review of school safety standards.",
        "url": "https://www.seattletimes.com/education-lab/police-presence-at-seattle-public-schools-halted-indefinitely/"
      },
      "geometry": {
        "coordinates": [
           -122.3321, 47.6062
        ],
        "type": "Point"
      }
    },
    {
      "properties": {
        "name": "Edmonds, WA",
        "status":"removed",
        "summary":"Edmonds, WA removes police officers from three high schools, further decision being made in August. <span>Update 7/13:</span> district permanently cut ties with police at three schools, considering fourth in August following review of school safety standards.",
        "url": "https://www.q13fox.com/news/seattle-and-edmonds-school-districts-vote-out-officers-from-schools"
      },
      "geometry": {
        "coordinates": [
           -122.3774, 47.8107
        ],
        "type": "Point"
      }
    },
    {
      "properties": {
        "name": "Los Angeles, CA",
        "status":"decided_to_keep",
        "summary":"LA, CA rejects reforming/defunding police",
        "url": "https://edsource.org/2020/measures-to-defund-reform-los-angeles-school-police-rejected-by-school-board/634430"
      },
      "geometry": {
        "coordinates": [
           -118.2437, 34.0522
        ],
        "type": "Point"
      }
    },
    {
      "properties": {
        "name": "Milwaukee, WI",
        "status":"removed",
        "summary": "Milwaukee, WI removes police from schools",
        "url": "https://www.policeone.com/school-safety/articles/wis-school-board-cuts-ties-with-police-pwMpLWgYHuW8vLCC/"
      },
      "geometry": {
        "coordinates": [
           -87.9065, 43.0389
        ],
        "type": "Point"
      }
    },
    {
      "properties": {
        "name": "Charlottesville, VA",
        "status":"removed",
        "summary":"Charlottesville, VA removes police from schools",
        "url": "https://www.dailyprogress.com/news/local/charlottesville-schools-police-agree-to-end-mou-for-school-resource-officers/article_558f34f9-d3fd-5fc5-8b22-5334f173655f.html"
      },
      "geometry": {
        "coordinates": [
          -78.4767, 38.0293
        ],
        "type": "Point"
      }
    },
    {
      "properties": {
        "name": "San Francisco, CA",
        "status":"removed",
        "summary":"San Francisco, CA removes police from schools",
        "url": "https://missionlocal.org/2020/06/san-francisco-unified-school-district-votes-to-cut-ties-and-funds-from-police/"
      },
      "geometry": {
        "coordinates": [
          -122.4194, 37.7749
        ],
        "type": "Point"
      }
    },
    {
      "properties": {
        "name": "San Jose, CA",
        "status":"considering",
        "summary":"San Jose Unified School District to decide whether to cut SROs in August.",
        "url": "https://www.mercurynews.com/2020/06/25/alum-rock-east-side-union-school-districts-terminate-contracts-with-san-jose-police/"
      },
      "geometry": {
        "coordinates": [
          -121.8863, 37.3382
        ],
        "type": "Point"
      }
    },
    {
      "properties": {
        "name": "Alum Rock Union/East Side Union (San Jose, CA)",
        "status":"removed",
        "summary":"Alum Rock Union/East Side Union Districts removing police from schools now.",
        "url": "https://www.mercurynews.com/2020/06/25/alum-rock-east-side-union-school-districts-terminate-contracts-with-san-jose-police/"
      },
      "geometry": {
        "coordinates": [
          -121.803564, 37.333859
        ],
        "type": "Point"
      }
    },
    {
      "properties": {
        "name": "New York City, NY",
        "status":"considering",
        "summary":"Mayor Bill deBlasio says he wants to keep police in schools, no formal decision made. Police commissioner Dermot Shea open to scaling back traffic and school law enforcement presence. <span>7/13 update:</span> SROs limited on arresting students for minor crimes, like marijuana possession.",
        "url": "https://www.nydailynews.com/news/politics/ny-school-discipline-overhaul-nypd-arrest-students-20190620-ytowc3qlgfb2plsxk7ffgid6te-story.html"
      },
      "geometry": {
        "coordinates": [
          -74.0060, 40.7128
        ],
        "type": "Point"
      }
    },
    {
      "properties": {
        "name": "Portland, ME",
        "status":"removed",
        "summary":"Portland, ME removes police from schools",
        "url": "https://www.newscentermaine.com/article/news/education/portland-board-of-public-education-still-deciding-fate-of-student-resource-officers-in-two-local-high-schools/97-816a6117-1e66-4642-bdac-3593c34033f1"
      },
      "geometry": {
        "coordinates": [
          -70.2568, 43.6591
        ],
        "type": "Point"
      }
    },
    {
      "properties": {
        "name": "Washington, DC",
        "status":"decided_to_keep",
        "summary":"District of Columbia Schools cuts ties with police department, makes itself responsible for security guards",
        "url": "https://www.washingtoncitypaper.com/news/city-desk/article/21138567/dc-council-moves-to-cut-some-ties-between-police-and-schools"
      },
      "geometry": {
        "coordinates": [
          -77.0369, 38.9072
        ],
        "type": "Point"
      }
    },
    {
      "properties": {
        "name": "Dallas, TX",
        "status":"considering",
        "summary":"Protesters, advocacy groups demand removing police officers from schools, Superintendent declines, releases letter acknowledging faults of police in schools.",
        "url": "https://www.dallasnews.com/news/education/2020/06/08/dallas-isd-should-disband-its-police-force-advocacy-groups-urge/"
      },
      "geometry": {
        "coordinates": [
          -96.7970, 32.7767
        ],
        "type": "Point"
      }
    },
    {
      "properties": {
        "name": "Boston, MA",
        "status":"considering",
        "summary":"Boston city counselors call for further consideration of removing police officers from schools. <span>Update 7/13:</span> Boston district names new Chief of Safety Department.",
        "url": "https://www.nbcboston.com/news/local/boston-public-schools-names-new-chief-of-safety-department/2157057/"
      },
      "geometry": {
        "coordinates": [
          -71.0589, 42.3601
        ],
        "type": "Point"
      }
    },
    {
      "properties": {
        "name": "Stockton, CA",
        "status":"considering",
        "summary":"Stockton, CA school board considers removing police from schools, deciding as soon as next month",
        "url": "https://sacramento.cbslocal.com/2020/06/22/stockton-unified-school-district-police-department-elimination/"
      },
      "geometry": {
        "coordinates": [
          -121.2908, 37.9577
        ],
        "type": "Point"
      }
    },
    {
      "properties": {
        "name": "Moreno Valley, CA",
        "status":"considering",
        "summary":"Moreno Valley, CA school board considers removing police from schools, hears from public. School district near Moreno Valley resolves to survey students’ opinions on SROs.",
        "url": "https://www.pe.com/2020/06/16/moreno-valley-area-school-districts-ponder-cutting-police-funding/"
      },
      "geometry": {
        "coordinates": [
          -117.2297, 33.9425
        ],
        "type": "Point"
      }
    },
    {
      "properties": {
        "name": "Sacramento, CA",
        "status":"removed",
        "summary":"Sacramento, CA school board removes police from schools.",
        "url": "https://fox40.com/news/local-news/sacramento-city-unified-removing-school-resource-officers-will-use-funds-for-alternative-safety-plans/"
      },
      "geometry": {
        "coordinates": [
          -121.4944, 38.5816
        ],
        "type": "Point"
      }
    },
    {
      "properties": {
        "name": "Tacoma, WA",
        "status":"considering",
        "summary":"Tacoma, WA Education Association passes resolution to remove SROs from school, pending approval from Tacoma Public Schools’ board of directors.",
        "url": "https://www.thenewstribune.com/news/local/article243427501.html"
      },
      "geometry": {
        "coordinates": [
          -122.4443, 47.2529
        ],
        "type": "Point"
      }
    },
    {
      "properties": {
        "name": "Louisville, KY",
        "status":"decided_to_keep",
        "summary":"Louisville, KY removed police from schools for 2019-20 school year August 2019, intending to create district SROs for 2020-21 school year.",
        "url": "https://www.wave3.com/2019/08/07/jcps-vote-removes-sros-schools-school-year"
      },
      "geometry": {
        "coordinates": [
          -85.7585, 38.2527
        ],
        "type": "Point"
      }
    },
    {
      "properties": {
        "name": "Detroit, MI",
        "status":"considering",
        "summary":"Detroit, MI public schools moving away from hiring security guards, continuing to talk with community about other police presence in schools.",
        "url": "https://detroit.chalkbeat.org/2020/6/15/21292308/detroit-school-district-pressure-defund-police"
      },
      "geometry": {
        "coordinates": [
          -83.0458, 42.3314
        ],
        "type": "Point"
      }
    },
    {
      "properties": {
        "name": "Omaha, NE",
        "status":"considering",
        "summary":"Omaha, NE public schools considering removing police from schools, changing school drug policies to not mandate police presence.",
        "url": "https://www.omaha.com/news/education/proposed-changes-to-drug-portion-of-ops-student-code-of-conduct-spark-debate/article_7591a401-7e0b-5cc6-9e5e-e623bf9248b0.html"
      },
      "geometry": {
        "coordinates": [
          -95.9345, 41.2565
        ],
        "type": "Point"
      }
    },
    {
      "properties": {
        "name": "Wilmington, DE",
        "status":"considering",
        "summary":"Wilmington, DE school board introduced resolution to remove SROs, replace with counselors, pending vote on July 8th following public forum.",
        "url": "https://www.delawareonline.com/story/news/2020/06/17/red-clay-board-members-want-end-school-police-contracts-replace-officers-counselors/3197848001/"
      },
      "geometry": {
        "coordinates": [
          -75.5484, 39.7447
        ],
        "type": "Point"
      }
    },
    {
      "properties": {
        "name": "Prince George County, MD",
        "status":"considering",
        "summary":"School districts in Maryland’s Prince George and Montgomery counties consider removing armed police from schools, tabled until fall.",
        "url": "https://foxbaltimore.com/news/local/amid-growing-debate-some-maryland-school-districts-look-to-remove-police-officers"
      },
      "geometry": {
        "coordinates": [
          -76.8721, 38.7849
        ],
        "type": "Point"
      }
    },
    {
      "properties": {
        "name": "Montgomery County, MD",
        "status":"considering",
        "summary":"School districts in Maryland’s Prince George and Montgomery counties consider removing armed police from schools, tabled until fall.",
        "url": "https://foxbaltimore.com/news/local/amid-growing-debate-some-maryland-school-districts-look-to-remove-police-officers"
      },
      "geometry": {
        "coordinates": [
          -77.2405, 39.1547
        ],
        "type": "Point"
      }
    },
    {
      "properties": {
        "name": "Cincinnati, OH",
        "status":"considering",
        "summary":"Cincinnati, OH schools considering removing police from schools, exploring other options.",
        "url": "https://local12.com/news/local/police-in-schools-push-at-cincinnati-public-schools-to-remove-officers-cincinnati"
      },
      "geometry": {
        "coordinates": [
          -84.5120, 39.1031
        ],
        "type": "Point"
      }
    },
    {
      "properties": {
        "name": "Columbus, OH",
        "status":"removed",
        "summary":"Columbus, OH schools let contract expire with police department, holding public forum to discuss future of SROs. <span>Update 7/13:</span> Columbus district removes 22 officers from city schools.",
        "url": "https://abc6onyourside.com/news/local/hundreds-sign-up-to-analyze-ccs-safety-as-students-parents-demand-removal-of-police"
      },
      "geometry": {
        "coordinates": [
          -82.9988, 39.9612
        ],
        "type": "Point"
      }
    },
    {
      "properties": {
        "name": "Framingham, MA",
        "status":"considering",
        "summary":"Framingham, MA Superintendent wants to reconsider SROs in schools, meets with community to discuss alternatives.",
        "url": "https://www.wbur.org/news/2020/06/26/framingham-school-police-officers-role-debate"
      },
      "geometry": {
        "coordinates": [
          -71.4162, 42.2793
        ],
        "type": "Point"
      }
    },
    {
      "properties": {
        "name": "Christina, DE",
        "status":"decided_to_keep",
        "summary":"Christina, DE schools vote to renew contract with police.",
        "url": "https://whyy.org/articles/delaware-school-district-approves-funding-to-continue-police-presence-in-schools/"
      },
      "geometry": {
        "coordinates": [
          -75.6572, 39.6800 
        ],
        "type": "Point"
      }
    }
  ]
}
